nta_name,nta_code,borough,coverage_status,demand_score,expansion_rank,population,gap_population,pct_gap_pop,median_income,no_vehicle_rate,transit_share,bike_share,bus_stop_count,bus_stop_density,area_sqkm,norm_transit,norm_no_vehicle,norm_density,norm_bus_density,norm_inv_income,centroid_lat,centroid_lon
Mount Hope,BX0502,Bronx,Covered,0.7516,0,48070.0,0.0,0.0,41486.521884751404,0.757852170393719,0.7235018559534847,0.0016306216845225713,41,34.799597425290045,1.1781745489447506,1.0,0.8468791172299233,0.753442014442941,0.3902784966166954,0.0013815033879952532,40.84970350902497,-73.9048380199034
Fordham Heights,BX0503,Bronx,Covered,0.7477,0,33606.0,0.0,0.0,40303.51493780872,0.7765027082148652,0.6677477148863158,0.0074115324028518345,20,29.174286581899114,0.6855351867424513,0.904906880757791,0.8693448999326988,0.9107153012673156,0.3140417685228625,0.001390416251328075,40.85861948005796,-73.89873051559444
Harlem (North),MN1002,Manhattan,Covered,0.7191,0,86108.0,0.0,0.0,54703.856575463375,0.7699219950891975,0.6481134005810862,0.01832071684968531,103,46.59724699843658,2.2104310154515314,0.8714189970646881,0.8614180040689811,0.718144493698164,0.5501655193420265,0.0012819229941298804,40.81896076027872,-73.94132228185643
Mount Eden-Claremont (West),BX0403,Bronx,Covered,0.7096,0,53166.0,0.0,0.0,45404.97080841139,0.7511436939725086,0.6520939125937967,0.0017409124100527258,42,33.22329670409423,1.2641731606010123,0.8782080766958084,0.8387983221884673,0.7774609383510258,0.3689157643479345,0.0013519814990297085,40.8406556482174,-73.91410745176121
Washington Heights (South),MN1201,Manhattan,Covered,0.6938,0,60428.0,0.0,0.0,55960.83636724697,0.8392613303020544,0.6175095334474829,0.015205224002788058,95,48.629800136329195,1.9535346584537916,0.8192216691011487,0.9449417315124194,0.5646685247623069,0.5777115883902533,0.0012724528138192692,40.83998659489743,-73.938575512141
Hamilton Heights-Sugar Hill,MN0903,Manhattan,Covered,0.6868,0,39245.0,0.0,0.0,64785.47626449229,0.796075614511217,0.6721477934848651,0.023274947270284375,62,41.75298849836006,1.4849236480985113,0.9124115645505672,0.8929217352997232,0.47851163488892806,0.4845139618782343,0.0012059673129788395,40.82593351395648,-73.94869522228677
East Harlem (North),MN1102,Manhattan,Covered,0.6861,0,64572.0,0.0,0.0,36709.117790993,0.8440599659736567,0.658821572075648,0.0258859452531871,87,35.85316912554611,2.426563735421947,0.8896826346942524,0.950721999475833,0.4819838113144202,0.40455697143807284,0.001417496709829269,40.80157301165448,-73.9373706574422
Concourse-Concourse Village,BX0401,Bronx,Covered,0.6792,0,68692.0,0.0,0.0,-31163710.073472895,0.7576281849007273,0.6685154192672061,0.00311372039128926,61,24.774519062386947,2.4622072318090376,0.9062162616008538,0.8466093121732337,0.5066251315206909,0.25441415159655345,0.2364838020228457,40.829084237361045,-73.91858187177282
Upper East Side-Yorkville,MN0803,Manhattan,Covered,0.6762,0,68059.0,0.0,0.0,135656.47231078916,0.747979720844092,0.5055864075972838,0.015114952637984541,52,41.020498979852775,1.267658885025748,0.6283278816852216,0.834987111302107,1.0,0.4745869363664563,0.000672019897326126,40.77742025928544,-73.94936833019321
Upper West Side-Manhattan Valley,MN0703,Manhattan,Covered,0.6746,0,53065.0,0.0,0.0,100362.78654480354,0.7742906115214028,0.5531817902911891,0.03247933799452214,52,42.401839478832876,1.226361889935425,0.7095055900179082,0.866680285962344,0.8006911748719577,0.4933074805208245,0.0009379251809388256,40.79962880846117,-73.96866645492032
Harlem (South),MN1001,Manhattan,Covered,0.6724,0,49776.0,0.0,0.0,68758.08389585343,0.7272427147151288,0.5850919438267889,0.015504654388453573,73,54.46727317775462,1.3402543535044171,0.7639308932710298,0.810008042169248,0.6834022903429455,0.6568236334672088,0.0011760373882353514,40.80405514715223,-73.9517613605108
Parkchester,BX0904,Bronx,Gap Zone,0.6699,1,30221.0,30221.0,100.0,59699.77085470368,0.6883327033626354,0.636769163043893,0.004198919201551327,37,43.36347637126871,0.853252624010446,0.8520704982413156,0.7631384093259244,0.6504859762963264,0.5063400137149257,0.001244283400120616,40.837658367837705,-73.85824711480167
East Harlem (South),MN1101,Manhattan,Covered,0.6681,0,49510.0,0.0,0.0,47246.79060795799,0.8366236773113875,0.6059683085941077,0.01919770324920103,50,32.31641138324704,1.5472014948392505,0.7995371927523699,0.9417645073754048,0.5850817853837041,0.35662524893598274,0.0013381050901046798,40.79041670505543,-73.94777178539528
University Heights (North)-Fordham,BX0701,Bronx,Covered,0.653,0,44997.0,0.0,0.0,42687.61561881903,0.7220299736696983,0.6714648867330336,0.008970960820521985,57,33.494652379691146,1.7017641907088692,0.911246812804056,0.8037289574192253,0.47874914666706964,0.37259329780930855,0.0013724542574475862,40.863880675533345,-73.90430487138931
Highbridge,BX0402,Bronx,Covered,0.6527,0,32025.0,0.0,0.0,40235.22882123341,0.7590427989355378,0.6704139494420336,0.0003237751730612651,31,25.571435319856896,1.2122901828638333,0.9094543557198592,0.8483133065469679,0.47828157678964556,0.26521431708530513,0.001390930724067374,40.83747404515462,-73.92708961591948
Melrose,BX0102,Bronx,Covered,0.6492,0,42760.0,0.0,0.0,30236.16929373246,0.7644550710607428,0.6490899497979781,0.006071540849349341,49,30.53721940049588,1.6045992713797745,0.8730845793757115,0.854832739426554,0.48270939809014246,0.33251284356107114,0.0014662643907507045,40.8182458365966,-73.91196621758897
Chinatown-Two Bridges,MN0301,Manhattan,Covered,0.6486,0,40100.0,0.0,0.0,-64556519.77094763,0.8601817892961691,0.42969851304713896,0.025016249523516866,42,39.17069954413573,1.0722300211329223,0.4988950455340334,0.9701417815223028,0.688366088744707,0.4495176272144882,0.4880677423374652,40.711738660544015,-73.99390149768226
Washington Heights (North),MN1202,Manhattan,Covered,0.6411,0,73256.0,0.0,0.0,73112.1142841542,0.7286369074569005,0.6246409725230586,0.01397990841081308,66,28.679024670847262,2.301333492247042,0.8313849052913587,0.8116874377707473,0.5818730300807713,0.3073297576315084,0.0011432337957474337,40.854519650577714,-73.93217532550955
Tremont,BX0602,Bronx,Covered,0.6352,0,32561.0,0.0,0.0,-49927720.7858481,0.7254551593146583,0.6248518554686288,0.004038639393560308,36,24.48000252765753,1.470588083450039,0.8317445829171891,0.8078548157271338,0.39649060320145274,0.25042273181506985,0.377853270297391,40.84554167777812,-73.89050954246792
Claremont Village-Claremont (East),BX0302,Bronx,Covered,0.6321,0,23929.0,0.0,0.0,30474.76392661624,0.7740433226198788,0.6124072351032417,0.0,32,34.45023803777769,0.9288760200991706,0.810519293715727,0.8663824104383393,0.46573781041550627,0.385543821969498,0.0014644668008376716,40.83727664257693,-73.90365353786648
Flatbush,BK1401,Brooklyn,Covered,0.6292,0,70800.0,16205.0,22.9,79037.85632768362,0.6354365459315189,0.6411659042095796,0.01735494297738294,75,33.6033788810777,2.2319184111045756,0.8595694897770667,0.6994215562219941,0.5797612403895918,0.37406680797675806,0.001098588809413381,40.64250320083981,-73.95691260314936
University Heights (South)-Morris Heights,BX0501,Bronx,Covered,0.6265,0,55671.0,0.0,0.0,32392.728835479873,0.7199254133072749,0.615840599475946,0.001766371328678918,50,27.406659091756403,1.8243741359573231,0.8163751695564505,0.8011938779357012,0.556681120125836,0.2900860903232268,0.0014500167089307459,40.85122779668953,-73.916644462027
Brownsville,BK1602,Brooklyn,Gap Zone,0.621,2,54529.0,30769.0,56.4,33493.55198151442,0.7136233055721469,0.6746806168540986,0.0012529972284720066,89,31.117673282835476,2.8601110112269366,0.9167314961298164,0.7936025803385703,0.33764305366371933,0.34037941414373046,0.0014417230245366008,40.66356612658033,-73.9097570122749
Bedford Park,BX0702,Bronx,Covered,0.6187,0,54787.0,0.0,0.0,44437.69248179313,0.6957692067671731,0.6521040329291927,0.0064647225073848754,67,29.371634995742653,2.2811123728628484,0.8782253377322473,0.7720961600973456,0.43238266228336786,0.3167163224781546,0.0013592690467083557,40.8705004233055,-73.88973115413899
Upper West Side (Central),MN0702,Manhattan,Covered,0.6186,0,94683.0,0.0,0.0,153858.36685571854,0.7302228804705978,0.5079479561349762,0.03246059387810235,94,39.81822148705908,2.3607282417309876,0.6323556904253922,0.8135978451509459,0.7401872372894827,0.4582931341458848,0.0005348854545436099,40.78875583518925,-73.97601629075224
Inwood,MN1203,Manhattan,Covered,0.6172,0,40883.0,0.0,0.0,63123.463175402976,0.726711316984222,0.6136580232427764,0.009499202721283392,27,20.130640850106634,1.341238970037905,0.8126526123073671,0.809367939129551,0.5560382601855525,0.19147823739966294,0.0012184890446209629,40.86712204155874,-73.92010522062498
Longwood,BX0202,Bronx,Covered,0.6167,0,41452.0,0.0,0.0,36558.300829875516,0.6989553585043731,0.6010380162736496,0.021223992757185037,51,35.667981094542135,1.4298538474835052,0.7911281873125149,0.7759340865567557,0.5275122066596333,0.4020472204289407,0.0014186329761599614,40.82172168774616,-73.8953626979228
Kingsbridge Heights-Van Cortlandt Village,BX0801,Bronx,Covered,0.6141,0,34127.0,0.0,0.0,55462.217540363934,0.6317667948908946,0.5958103320848376,0.0,39,38.26721772927992,1.0191490867170987,0.7822119564028068,0.6950011030295681,0.6135107481736244,0.43727323763772213,0.0012762094455708306,40.876710598928234,-73.89899614038266
Crown Heights (North),BK0802,Brooklyn,Covered,0.6093,0,86360.0,0.0,0.0,73859.19679249653,0.7093919380215007,0.5942332672749869,0.034128733332546624,127,38.59847487144775,3.290285443219547,0.7795221470156414,0.7885056236266511,0.47502981165809866,0.44176258256099143,0.0011376052199285613,40.67318180974769,-73.94080521424586
Manhattanville-West Harlem,MN0902,Manhattan,Covered,0.6057,0,20451.0,0.0,0.0,-2724937.977311623,0.8107466762190588,0.5692194473221949,0.010644276006664006,39,39.105743111266435,0.9972959697769822,0.7368590888473097,0.9105939808675525,0.36521189347774025,0.4486373085888215,0.02222395367582941,40.81839246403313,-73.95512839273665
East Flatbush-Erasmus,BK1701,Brooklyn,Covered,0.5968,0,45277.0,0.0,0.0,71675.13090531617,0.6548982673743177,0.6356624621457007,0.013612741454990907,51,27.76595524510072,1.8367817548434213,0.8501829318926478,0.722864462220133,0.4444828148579967,0.2949554324645331,0.0011540601366241132,40.64828468013491,-73.95019955129716
North Corona,QN0303,Queens,Covered,0.5941,0,42364.0,0.0,0.0,77536.26012652252,0.557203234413364,0.6570503119491375,0.021748633190916793,20,15.41950254314748,1.2970587049767128,0.8866616097587896,0.6051844573490246,0.5977437646321918,0.12763078432210412,0.0011099019481541905,40.7534185927029,-73.86328509238979
Kingsbridge-Marble Hill,BX0802,Bronx,Covered,0.5923,0,14746.0,0.0,0.0,-132505437.48304625,0.5397397680582735,0.5957781602472886,0.0021496860214968603,31,27.10106495932748,1.1438664881444303,0.7821570847766688,0.5841485792347826,0.2195327792462853,0.2859445419840046,1.0,40.88233515850247,-73.90428033137945
Ocean Hill,BK1601,Brooklyn,Covered,0.5898,0,40131.0,0.0,0.0,57870.29313996661,0.6399985798032944,0.6416847898886641,0.01745424857042153,60,32.14757381566917,1.8663927904492492,0.8604544905466921,0.7049168219686905,0.38425527236519486,0.35433708671885283,0.0012580668228502345,40.67656867604536,-73.91330700284651
West Farms,BX0601,Bronx,Covered,0.5883,0,18526.0,0.0,0.0,27828.788999244305,0.7625215162457218,0.6141058888908214,0.005083693075964116,31,28.516724173711165,1.0870813846345684,0.8134164827689839,0.8525036472183435,0.2989350919733565,0.3051301887162731,0.0014844017749902072,40.84159836650015,-73.87918363142819
East Village,MN0303,Manhattan,Covered,0.5853,0,60294.0,0.0,0.0,97517.38635685144,0.8406047256970557,0.43449185269830787,0.05847828207598673,70,39.6980480694227,1.7633108780962279,0.5070704673106486,0.9465599384144097,0.6270521961887783,0.4566644902505496,0.0009593626400069555,40.72648967308114,-73.98397469189287
Bushwick (West),BK0401,Brooklyn,Covered,0.5823,0,54804.0,0.0,0.0,86759.59192759653,0.6679994315628307,0.5916575596223509,0.03970571529093109,67,31.173715465697022,2.149246536676886,0.7751290728823657,0.7386456643835797,0.4607242597637633,0.34113892286698977,0.0010404126725176432,40.701072151264725,-73.92511949210501
Elmhurst,QN0401,Queens,Covered,0.5814,0,104486.0,0.0,0.0,68354.46393775243,0.5869815541120176,0.6435162618618384,0.004399191608484651,87,22.242579200025872,3.9114168917918835,0.8635782115726158,0.6410543752044346,0.4839468238566625,0.22010017034100351,0.0011790782913627673,40.74162170236716,-73.87869557849889
Norwood,BX0703,Bronx,Covered,0.5772,0,35127.0,0.0,0.0,48424.89227659635,0.6835641359146688,0.5962204017782914,0.0,38,26.017763186821085,1.4605406209265652,0.7829113628596338,0.757394360488465,0.4330142539793421,0.2712631519287034,0.0013292291835076409,40.877461042371934,-73.87828864118335
Corona,QN0402,Queens,Covered,0.5762,0,70680.0,0.0,0.0,66387.85278720997,0.5593334379736354,0.6258227789945443,0.005972386144327478,41,18.368641629684095,2.2320648868092223,0.833400570165091,0.6077504257278816,0.578692934594372,0.16759883602814243,0.001193894887714042,40.744415305586315,-73.8598008078647
Mott Haven-Port Morris,BX0101,Bronx,Covered,0.5704,0,57846.0,0.0,0.0,-3785782.780468831,0.7450417484409355,0.6289054880188264,0.005959790035403822,60,15.761655976537986,3.8067066106069696,0.8386583754370245,0.8314481329504355,0.26361763296168184,0.13226780065666094,0.030216438227399278,40.809041548366814,-73.91748081750623
Morrisania,BX0301,Bronx,Covered,0.5704,0,35453.0,0.0,0.0,33049.36620314219,0.7627120764068062,0.5102355865206969,0.014744322279419651,40,31.17425288901139,1.2831101403587957,0.6362574258819453,0.8527331892943834,0.5014977125416474,0.34114620626807274,0.0014450695536056823,40.82727143855687,-73.90473550121712
Belmont,BX0603,Bronx,Covered,0.5698,0,36322.0,0.0,0.0,32956.44196354826,0.7486678092792036,0.5560877891852556,0.00812838114004773,37,24.29338413079543,1.5230484069568992,0.714462002116846,0.8358159584598539,0.4291411446395837,0.24789359584819295,0.001445769651817197,40.85659455382122,-73.88802699180977
East Flatbush-Remsen Village,BK1704,Brooklyn,Gap Zone,0.5695,3,38460.0,23985.0,62.4,57610.916302652106,0.6000615889861526,0.6105656143564472,0.0011061410198343418,63,36.873297121382926,1.7085534768591693,0.8073782631497126,0.6568101257380127,0.4035456338753491,0.4183822022216997,0.001260020987454702,40.65619499931365,-73.91921126714466
Gramercy,MN0602,Manhattan,Covered,0.5685,0,26083.0,0.0,0.0,153847.4613733083,0.7958983923009209,0.37905953708672235,0.03671259118087217,37,52.91851378072775,0.6991881924974795,0.4125262469634312,0.8927082596506668,0.6865678384230459,0.6358341535396014,0.0005349676172684559,40.73683825332086,-73.98412020312293
Bedford-Stuyvesant (East),BK0302,Brooklyn,Covered,0.5674,0,92641.0,0.0,0.0,70754.83500825768,0.6071424181098448,0.5761165824375566,0.03040295825549398,170,44.31770754646347,3.835938486253356,0.7486227010095806,0.6653394437648629,0.43492960249068985,0.5192721813172636,0.0011609937151439986,40.68745895750561,-73.93243461586778
Bushwick (East),BK0402,Brooklyn,Covered,0.5656,0,60220.0,0.0,0.0,67099.48033875789,0.6176449436030068,0.6000780079601581,0.019600121254308604,85,32.753395529940406,2.5951507813075483,0.7894908168270046,0.6779904170409374,0.4168325571867556,0.3625474535039166,0.0011885334322069285,40.69113475601652,-73.91307081846455
Upper West Side-Lincoln Square,MN0701,Manhattan,Covered,0.5594,0,52581.0,0.0,0.0,164497.40775184953,0.7144568267003748,0.424729932565495,0.03576983759252086,71,48.37747261340155,1.4676252430006347,0.49042073659191787,0.7946066106096817,0.6583041932413494,0.5742919329629224,0.0004547301200850118,40.774629448527236,-73.98388680917255
Crotona Park East,BX0303,Bronx,Covered,0.5578,0,29474.0,0.0,0.0,41412.09018117663,0.6580456332510372,0.6058648699845982,0.004643618167649207,37,24.93235267757654,1.484015587236449,0.7993607699819701,0.7266556685944789,0.35286378650800954,0.2565531833301353,0.0013820641620493346,40.832044300185615,-73.88919566288023
Astoria (Central),QN0103,Queens,Covered,0.5572,0,46503.0,0.0,0.0,103838.59843450961,0.6766140124692676,0.5995550160918023,0.007505737313218574,24,12.252124544174833,1.9588439468982213,0.7885988126251938,0.7490224859302517,0.42707121473729365,0.08470506128196928,0.0009117381526855262,40.764589561077244,-73.92287659843764
Crown Heights (South),BK0901,Brooklyn,Covered,0.5547,0,52591.0,0.0,0.0,70303.61596090585,0.6417469677682481,0.5510277391706254,0.02384508863431376,50,26.837542971051196,1.8630617584453768,0.7058316846157103,0.7070228686938559,0.5129327683278816,0.28237317415629265,0.0011643932333907925,40.66678076051527,-73.94426902409397
Soundview-Bruckner-Bronx River,BX0901,Bronx,Gap Zone,0.5537,4,67145.0,46157.0,68.7,41358.61471442401,0.6354602260137824,0.609530150747956,0.005102948144451784,54,18.046799150744143,2.992220368218226,0.8056121976609699,0.6994500804172542,0.40219862867283607,0.163237082831016,0.0013824670502385894,40.82993979533235,-73.87347581774652
Hell's Kitchen,MN0402,Manhattan,Covered,0.5523,0,48818.0,0.0,0.0,106573.8545003892,0.8849693446801861,0.4071254904041185,0.031208949259764553,57,33.376803137620044,1.707772903383713,0.46039496118579065,1.0,0.5197719299207076,0.3709961521805662,0.0008911305277190529,40.763281574045244,-73.99317653456528
Lower East Side,MN0302,Manhattan,Covered,0.5484,0,31114.0,0.0,0.0,67103.77248184098,0.8000843059096414,0.49494714117340355,0.05029600927184172,52,33.973651537001025,1.5305979088931996,0.6101817671306664,0.8977504641408496,0.3617981558669619,0.37908490858952204,0.0011885010948778918,40.71858144135273,-73.98656710101385
Downtown Brooklyn-DUMBO-Boerum Hill,BK0202,Brooklyn,Covered,0.5479,0,39872.0,0.0,0.0,150271.73179173356,0.7205742252520894,0.5238889790547742,0.0300718342607983,99,44.90353626050688,2.2047261361700707,0.6595443720971069,0.8019754140129418,0.3188846522471269,0.5272115940227072,0.0005619074329289431,40.692480213417,-73.98577823186821
Prospect Lefferts Gardens-Wingate,BK0902,Brooklyn,Covered,0.5463,0,47387.0,0.0,0.0,73345.3286977441,0.6345825401338412,0.5731599234245435,0.014950717634565852,72,32.23975972375242,2.23326726430143,0.7435798840510288,0.6983928508376495,0.3788372307503167,0.35558643136918144,0.0011414767408114423,40.65992785994941,-73.94834083643207
Allerton,BX1104,Bronx,Gap Zone,0.5393,5,35581.0,30576.0,85.9,46623.311374047946,0.5779694832359076,0.5952136923613784,0.006259407697309482,31,21.180612548240113,1.463602619111966,0.7811943399301724,0.6301987512033325,0.4379857898626538,0.20570792338241484,0.001342802429555645,40.864398012582015,-73.86496908059138
Fort Greene,BK0203,Brooklyn,Covered,0.5383,0,34036.0,0.0,0.0,112864.2159184393,0.7281540581782979,0.5042057656954538,0.027616773945354535,60,36.83393144254002,1.6289328249849857,0.6259730871804808,0.8111058144912847,0.3726385074812264,0.4178487009383525,0.0008437384715880292,40.69104314989413,-73.97439665061283
Bedford-Stuyvesant (West),BK0301,Brooklyn,Covered,0.537,0,89800.0,0.0,0.0,77684.5173830735,0.6670458638518851,0.5018114223070501,0.03967597351459607,122,35.581578435862205,3.428740527065483,0.6218893442157033,0.737497030215926,0.47394726507573937,0.40087625296069757,0.0011087849668303118,40.689129469088634,-73.95022882052324
Upper East Side-Lenox Hill-Roosevelt Island,MN0801,Manhattan,Covered,0.5367,0,71874.0,0.0,0.0,139425.8252775691,0.751424782224027,0.3937978390464786,0.012471437394512503,73,36.54563376739392,1.99750264189236,0.43766359243878045,0.8391369112221709,0.6612629642950012,0.4139415619229113,0.0006436213085158071,40.766320328081115,-73.9552481241841
Kingsbridge-Marble Hill,BX0802,Manhattan,Covered,0.5361,0,11563.0,0.0,0.0,44498.0,0.6790626591951096,0.6164642375168691,0.0,31,27.10106495932748,1.1438664881444303,0.8174388338054975,0.7519720397600751,0.16629942709855625,0.2859445419840046,0.0013588146853293903,40.87584783096688,-73.91037303793352
Sunset Park (Central),BK0703,Brooklyn,Covered,0.5328,0,45084.0,0.0,0.0,61190.86474137166,0.6779247520213723,0.5095512586667897,0.031093440288443436,48,27.54931825991753,1.742329866283366,0.6350902503328868,0.7506013567510239,0.46792737475454876,0.292019471164922,0.0012330493866072878,40.642356001060406,-74.0069493505781
Williamsburg,BK0102,Brooklyn,Covered,0.5326,0,64311.0,0.0,0.0,128875.99990670336,0.67452930767632,0.5060113847803749,0.04868039488366294,94,35.067921238506365,2.680512464958522,0.6290527140505559,0.7465113237682311,0.43189265632925544,0.3939149409232899,0.000723104486495707,40.71434063714875,-73.95872326931261
Prospect Heights,BK0801,Brooklyn,Covered,0.531,0,23921.0,0.0,0.0,150273.3795409891,0.6574424152316324,0.5116492092596661,0.04160349158529504,31,32.368229177598835,0.9577292545078201,0.638668471825929,0.7259290533581623,0.4507309325452741,0.35732750685708253,0.0005618950186619953,40.677472464913144,-73.96726880471202
Cypress Hills,BK0501,Brooklyn,Gap Zone,0.5309,6,40786.0,37786.0,92.6,-100598282.5251802,0.5344475956198589,0.5174897854932684,0.007375585047347953,47,20.751664911587657,2.2648785145791055,0.6486300388341276,0.5777738142190393,0.3174162855979682,0.1998946331923472,0.7596090942555175,40.68294056457917,-73.87994230362226
East Williamsburg,BK0104,Brooklyn,Covered,0.5281,0,52600.0,0.0,0.0,81788.21460076046,0.7049310455911666,0.5983886769560227,0.02920349688708905,104,21.417656412897504,4.855806722969569,0.7866095285219391,0.7831321893074159,0.1801439410212338,0.20892044783827288,0.0010778674032818625,40.710785191736754,-73.94187754951459
Financial District-Battery Park City,MN0101,Manhattan,Covered,0.5251,0,21205.0,0.0,0.0,154439.92016033953,0.8149242120256888,0.45275741344606085,0.010590198593828279,100,55.98405441568901,1.7862228994257325,0.538223833015258,0.9156260937516326,0.20002087524226408,0.6773797310827012,0.0005305039881978724,40.70747878903458,-74.00590212593762
Midtown South-Flatiron-Union Square,MN0501,Manhattan,Covered,0.5243,0,28936.0,0.0,0.0,171007.71637406692,0.832884522917086,0.3799682311250076,0.01783404571296446,80,57.87429358504425,1.3823062891029987,0.41407609687383057,0.937260453341142,0.373374460547088,0.7029970975889015,0.00040568096517157315,40.743992163184934,-73.98977848333834
East New York-City Line,BK0505,Brooklyn,Gap Zone,0.5229,7,49066.0,49066.0,100.0,50859.716891533855,0.6048297831169414,0.5872653895916675,0.0,82,27.994475545416943,2.9291493554493275,0.7676378777807021,0.6625537248907135,0.293367704886782,0.29805244176484536,0.0013108850316932985,40.673517270543215,-73.86707280879227
West Village,MN0203,Manhattan,Covered,0.5197,0,23895.0,0.0,0.0,159221.79355513706,0.8486474209309463,0.43767283281958497,0.04397275820425705,46,34.34449504724617,1.3393703979843021,0.5124958817496458,0.956247886569147,0.3142108462030225,0.38411074567533177,0.0004944769943135974,40.733742714944796,-74.00501637092763
Murray Hill-Kips Bay,MN0603,Manhattan,Covered,0.5176,0,47886.0,0.0,0.0,139022.31700288184,0.8302713228316833,0.32078947191125445,0.030453120642248383,68,46.41043102960927,1.4651878573723407,0.313142019174745,0.9341126843148263,0.5981437463383038,0.547633705791526,0.0006466613702121871,40.74519994522098,-73.97696430418044
Queensbridge-Ravenswood-Dutch Kills,QN0105,Queens,Covered,0.515,0,25694.0,0.0,0.0,70542.31532653538,0.6979419157244647,0.5890415877488864,0.03129655874587198,51,19.80260839856847,2.575418297101042,0.7706673249200405,0.7747133289843224,0.16377297094342697,0.18703259492583416,0.0011625948544133902,40.757593545525054,-73.9365073513272
Morningside Heights,MN0901,Manhattan,Covered,0.514,0,32122.0,0.0,0.0,77328.1628167611,0.8002806827540291,0.42114518509760057,0.035575705396297404,55,37.180334306295606,1.4792766398199668,0.4843066648495693,0.8979870127892681,0.38832548969007147,0.42254330745349056,0.0011114697689404984,40.80908643830952,-73.96111072725344
Hunts Point,BX0201,Bronx,Covered,0.5139,0,14519.0,463.0,3.2,-21221896.61856877,0.7254616306452862,0.6108032328863338,0.003994455212722012,41,9.798948153529654,4.184122556585984,0.8077835404396889,0.8078626108646831,0.03929937645089398,0.05145851781681025,0.1615814315569416,40.81424405615739,-73.88757904349852
Chelsea-Hudson Yards,MN0401,Manhattan,Covered,0.4999,0,53082.0,0.0,0.0,121441.44568780377,0.8055168317352367,0.4349157515107293,0.035841995388865774,73,26.481937154363987,2.7565959232695425,0.507793460429091,0.9042942939164533,0.3412972311629033,0.2775538451076198,0.0007791169772630724,40.74649002442555,-74.00013437919148
Astoria (East)-Woodside (North),QN0104,Queens,Covered,0.4986,0,37239.0,0.0,0.0,79364.64875533714,0.5922934427921557,0.5847648240751712,0.015621116760274155,43,17.773125237807616,2.419383165574555,0.7633729645333314,0.6474528897123654,0.26736961256141045,0.15952813158053888,0.001096126730679714,40.75982703831273,-73.9119615415789
Clinton Hill,BK0204,Brooklyn,Covered,0.4964,0,27123.0,0.0,0.0,118732.53032481657,0.6347663516771108,0.4915020653537911,0.03821161656580345,47,34.73037164390549,1.3532823800993672,0.6043059164863496,0.6986142637657353,0.35633408313555404,0.3893403178707693,0.0007995261493923822,40.68851454351907,-73.96463817929462
Ridgewood,QN0502,Queens,Covered,0.4955,0,69193.0,0.0,0.0,-1226950.066596332,0.5236330013324824,0.5738878519380587,0.018504769091034188,114,28.839280189457238,3.9529419337475327,0.7448214239906741,0.5647469338358146,0.3077774351475045,0.30950161208327776,0.010938000066782916,40.70454810733112,-73.90444970651534
Brooklyn Heights,BK0201,Brooklyn,Covered,0.4937,0,25277.0,0.0,0.0,178616.75554852237,0.6394347225840915,0.475608155471994,0.027654495269131593,17,18.331484547850835,0.927366245522819,0.577197589845754,0.7042376193696298,0.4943475822375091,0.16709526663911733,0.00034835389162313213,40.69526784006862,-73.99461493524073
Midtown-Times Square,MN0502,Manhattan,Covered,0.4908,0,21514.0,0.0,0.0,-9437401.615459701,0.8063092303433118,0.3491767531680615,0.010136834855236114,182,79.78936902473751,2.2810056305066606,0.3615587837387184,0.9052487894443417,0.1533502512329223,1.0,0.07279615968674225,40.75805086396,-73.98096884316138
Jamaica,QN1201,Queens,Gap Zone,0.4892,8,58368.0,58368.0,100.0,61787.49847519189,0.5224284005581236,0.5665077966808922,0.0018537303089208455,174,39.99501369639523,4.350542328122335,0.732234153141351,0.5632959140582694,0.22957417100515057,0.4606891012253047,0.0012285543031734791,40.704531718216856,-73.79790819600889
East Midtown-Turtle Bay,MN0604,Manhattan,Covered,0.4891,0,28603.0,0.0,0.0,142671.54162150822,0.847904291364804,0.32093012092321604,0.00891625582946208,58,47.51706768398429,1.22061404095331,0.3133819072442186,0.9553527387984468,0.4212032700990394,0.5626313406008767,0.000619167837413892,40.75732485245299,-73.9686232005582
Greenwich Village,MN0202,Manhattan,Covered,0.4886,0,31968.0,0.0,0.0,180632.02962337338,0.7069233631879891,0.34681787957093857,0.02937110069909599,41,41.62251165758241,0.9850438709056376,0.3575355373223083,0.7855320650983639,0.5937605732530722,0.48274568138497137,0.00033317066513938176,40.73038563049014,-73.99523879256633
Tribeca-Civic Center,MN0102,Manhattan,Covered,0.4843,0,16842.0,0.0,0.0,224853.86907730674,0.7453006504698673,0.43292942626618874,0.008549002343897695,58,45.97843227815385,1.2614610182687342,0.5044056248402448,0.8317599972397696,0.22832930419757402,0.5417790655292416,0.0,40.71546741257185,-74.00547279370046
Park Slope,BK0602,Brooklyn,Covered,0.482,0,59225.0,0.0,0.0,191269.61470662727,0.5473861820608693,0.49351255770008795,0.022603862636588326,71,29.5853220263592,2.399838674621901,0.6077349709881781,0.5933591809388797,0.4450292285929202,0.3196123046743087,0.00025302629888446226,40.67147092215135,-73.98053457553546
Long Island City-Hunters Point,QN0201,Queens,Covered,0.4813,0,25823.0,0.0,0.0,-9421592.415288696,0.5720256400047076,0.5780971916220701,0.016088749832474755,57,22.233557390105602,2.563692305279325,0.752000787403706,0.6230390064425084,0.16560852353143102,0.2199779027385627,0.07267705198336916,40.74515211084044,-73.94947353721223
Sunnyside,QN0202,Queens,Covered,0.4806,0,49054.0,1353.0,2.8,-1213098.1374607575,0.5760723110526487,0.5888519792464899,0.023438145216536158,79,17.826364713855817,4.43163826546172,0.7703439325480551,0.6279134842352925,0.18467118441556257,0.16024965676774047,0.010833638590631023,40.74118174890522,-73.92311254704431
East New York-New Lots,BK0503,Brooklyn,Gap Zone,0.4777,9,53067.0,53067.0,100.0,58086.81274615109,0.5653605853164594,0.5661709815106223,0.0034381348683453225,109,25.25461965489867,4.316042034664226,0.7316596880964948,0.6150105156952589,0.20812972441470623,0.2609206895191655,0.001256435547848933,40.66184755818299,-73.88699548230171
East New York (North),BK0502,Brooklyn,Gap Zone,0.4745,10,44062.0,37370.0,84.8,57841.430733965775,0.5204131088977059,0.55902889801594,0.0033095759275191916,59,22.7566949907157,2.592643616486088,0.7194782970034204,0.560868364517348,0.2980368475095969,0.22706769744034866,0.0012582842743882328,40.6719535242494,-73.88847898646628
SoHo-Little Italy-Hudson Square,MN0201,Manhattan,Covered,0.4704,0,18560.0,0.0,0.0,119551.18690732759,0.8045591915857823,0.4137179435518354,0.03238877230330523,30,24.99986802732887,1.2000063347216547,0.47163891403441,0.9031407542324286,0.26879760071100284,0.2574681815417054,0.0007933583291144242,40.72210750635013,-73.99897921813525
Jackson Heights,QN0301,Queens,Covered,0.4642,0,93394.0,0.0,0.0,72761.80310298306,0.5045789293016424,0.5024531500594455,0.015727231895095922,71,19.43816752848509,3.6526076800169123,0.6229838619055381,0.5417950679994022,0.4620626396343252,0.18209352928264944,0.001145873066539349,40.75471555719102,-73.88432902319599
East Flatbush-Rugby,BK1703,Brooklyn,Covered,0.4594,0,39525.0,1555.0,3.9,71298.01333333334,0.46244796615004097,0.5596274080043454,0.0026624181301514887,71,28.091609914328384,2.5274450348887196,0.7204991033615799,0.4910455897645516,0.27208299155946447,0.29936885016918585,0.0011569013687809937,40.652056698696825,-73.93005622403409
Kensington,BK1203,Brooklyn,Covered,0.4567,0,38201.0,0.0,0.0,82762.59692154656,0.5322979190603011,0.47565518469825785,0.016621675253678404,41,25.25983537993705,1.623130134591644,0.577277801929294,0.5751843893492901,0.4231565121993861,0.26099137535727,0.0010705263335767379,40.64180267336418,-73.97580904946587
Old Astoria-Hallets Point,QN0102,Queens,Covered,0.453,0,12995.0,0.0,0.0,83166.76483262793,0.5294146255605552,0.5388730344814658,0.023755360013642115,27,26.20357362332303,1.0303938076586658,0.6851008696441798,0.5717112752839051,0.2141823752654564,0.27378133805547333,0.001067481302130191,40.77145641147201,-73.93136946540993
Sunset Park (East)-Borough Park (West),BK1201,Brooklyn,Covered,0.4527,0,30570.0,0.0,0.0,57454.895158652274,0.5941483063853736,0.4207616140254466,0.013602432851267653,22,20.155165510815554,1.0915315971081696,0.4836524538976284,0.6496871932390592,0.5086906969875861,0.19181060656860516,0.0012611964624906769,40.641067804939645,-74.0000862224092
Westchester Square,BX1001,Bronx,Gap Zone,0.4513,11,15793.0,15793.0,100.0,52577.73272969037,0.5350379703457384,0.5502181901816801,0.010601785336663616,33,23.092763034751822,1.4290191238847851,0.7044509344675653,0.5784849588751351,0.18433816985683155,0.23162224185709132,0.0012979413711267096,40.83866635813962,-73.84763031728698
Upper East Side-Carnegie Hill,MN0802,Manhattan,Covered,0.4508,0,53138.0,0.0,0.0,197782.97265610297,0.614008392244414,0.36132504899330714,0.02196848622957017,73,39.16029131792967,1.864133221260709,0.3822786678834312,0.673609955019247,0.5182358681731862,0.4493765702785604,0.0002039541701102099,40.77523805874586,-73.96080531408244
East Flatbush-Farragut,BK1702,Brooklyn,Covered,0.4507,0,33174.0,10586.0,31.9,76059.54750708386,0.42228909706880235,0.5857822192867808,0.007076267219955774,48,21.419032225554837,2.240997608786996,0.765108212935015,0.4426716267710882,0.25610737289682783,0.2089390934666453,0.0011210276121182972,40.63872672121252,-73.9384998432763
Flatbush (West)-Ditmas Park-Parkville,BK1402,Brooklyn,Covered,0.4505,0,41597.0,11919.0,28.7,87260.8279683631,0.5281639323345146,0.5011766443956103,0.01822301425979205,46,21.6174297670571,2.127912545371125,0.6208066800320303,0.5702047341582007,0.3468815098824544,0.2116278656691207,0.0010366363224798558,40.63550887659303,-73.96636459635054
Pelham Parkway-Van Nest,BX1101,Bronx,Gap Zone,0.4478,12,29915.0,29915.0,100.0,72624.71646331272,0.4576824544443433,0.5161521187696547,0.00918482340019626,37,25.54886529335223,1.4482052167548645,0.6463485419117432,0.4853052217668872,0.36808436612265993,0.2649084379931784,0.001146905887595362,40.84937921001458,-73.86559302380181
Sunset Park (West),BK0702,Brooklyn,Covered,0.447,0,51321.0,0.0,0.0,81377.13450634244,0.5983969217855181,0.5222428349993371,0.021951479170481843,86,18.37471017362156,4.680345931304006,0.6567367425657875,0.6548049261046011,0.18268489903273266,0.1676810796493335,0.0010809645116376387,40.65098818268563,-74.00803178633555
Woodside,QN0203,Queens,Covered,0.4437,0,49495.0,0.0,0.0,74764.6497019901,0.44460946973674215,0.5626464017360701,0.008662856995287392,54,17.640394623803296,3.061156008785336,0.7256482371376075,0.46955796361625735,0.2822298362700303,0.15772930694465884,0.0011307834695936103,40.74449792589006,-73.9010879207594
Soundview-Clason Point,BX0902,Bronx,Gap Zone,0.4382,13,31934.0,31934.0,100.0,-81682289.62269054,0.47753567229511784,0.46040214452135475,0.010286860905746813,55,19.523218676947273,2.8171584260818214,0.5512625295103174,0.5092197105855777,0.18976925525995145,0.18324618048004906,0.6170945807274265,40.81841440666299,-73.86225706696715
Brighton Beach,BK1303,Brooklyn,Gap Zone,0.4377,14,25031.0,25031.0,100.0,43128.4494027406,0.6470982458559776,0.39833593415770624,0.014122609744547519,38,30.155052362007847,1.260153673215834,0.4454036743642569,0.7134688302984992,0.3529110965652823,0.3273335449568229,0.0013691329825569198,40.579229442467025,-73.96184111461271
Williamsbridge-Olinville,BX1201,Bronx,Gap Zone,0.426,15,59256.0,49428.0,83.4,55609.16919805589,0.48618694601165824,0.5112401764400671,0.003914053320847664,47,13.958937867232553,3.3670183539056073,0.6379708338398782,0.5196407310023543,0.30959052139430493,0.1078365586941986,0.0012751023007270268,40.87979076419116,-73.86128760089237
Gravesend (West),BK1103,Brooklyn,Gap Zone,0.425,16,59307.0,59307.0,100.0,72101.89702733235,0.42507252904436316,0.5046904738264114,0.011991688403272468,82,26.086523652215885,3.143385492571549,0.6267997954251525,0.44602445115237793,0.3338532086418497,0.272195024504255,0.0011508448485564315,40.600062716941125,-73.98461399526877
Flushing-Willets Point,QN0707,Queens,Gap Zone,0.4227,17,59370.0,59370.0,100.0,50031.73385548257,0.6118030617792726,0.4252455860309433,0.011201026784259892,87,24.302002573062754,3.579951888262659,0.4913002245642724,0.6709534914098436,0.2901745367527414,0.24801039683182183,0.0013171231181737797,40.75893851624416,-73.82786746895407
Bensonhurst,BK1101,Brooklyn,Gap Zone,0.4224,18,96647.0,96647.0,100.0,65271.73154883235,0.44157393194505185,0.5018485479854702,0.020951887536983946,66,14.60715829918214,4.518332631727238,0.621952665011206,0.4659014614248376,0.38211392583117304,0.11662153186123134,0.001202303829086926,40.61296148232852,-73.99317117212499
Spring Creek-Starrett City,BK0504,Brooklyn,Gap Zone,0.4222,19,16808.0,16808.0,100.0,41166.55277248929,0.6649591297243174,0.48027816523699207,0.007986859172064445,40,15.895696589743663,2.5164043471872186,0.5851626626985532,0.7349834235887086,0.10069529043032406,0.13408437898752734,0.0013839140593574495,40.64974403701024,-73.8782516494917
Bay Ridge,BK1001,Brooklyn,Covered,0.4187,0,64517.0,0.0,0.0,85207.84413410419,0.5031737405453887,0.4861976698881457,0.016355599173780024,193,33.70494185963276,5.726163267207691,0.5952588483965593,0.5401024269851261,0.18845920790538073,0.37544323487938847,0.001052103657127712,40.6267199498317,-74.02709094901743
Greenpoint,BK0101,Brooklyn,Covered,0.4173,0,38260.0,0.0,0.0,126127.07707788813,0.5853169464008345,0.4679729263894399,0.06430428139655728,70,21.33172680125891,3.281497117048625,0.564175099754584,0.6390492472299265,0.1959632103467951,0.2077558913150726,0.0007438150778822372,40.72838235722096,-73.95052262648557
Windsor Terrace-South Slope,BK0701,Brooklyn,Covered,0.416,0,26359.0,0.0,0.0,138230.92833567283,0.40288386456917114,0.5079850326094673,0.03552906165424587,34,23.90065365455654,1.4225552359953164,0.6324189272996831,0.4192967653695439,0.32738899151683876,0.24257113681175366,0.0006526237519650646,40.656243066206486,-73.98021877708058
Rego Park,QN0601,Queens,Covered,0.4079,0,30635.0,2114.0,6.9,83619.91633752245,0.46014981235421704,0.48310853577306373,0.002054968183203152,42,22.387776983299005,1.876023690575954,0.5899900846215642,0.4882773144317083,0.2853102553890913,0.22206795562992251,0.0010640672246029492,40.726934497052866,-73.86314689337347
Coney Island-Sea Gate,BK1302,Brooklyn,Gap Zone,0.4068,20,50029.0,50029.0,100.0,44729.90881288853,0.548852825028964,0.47064318811461603,0.0014548111616029477,95,21.4875293596359,4.421169060899878,0.5687294433742656,0.5951258475379744,0.18939142351466998,0.20986739725847575,0.0013570674668871296,40.57747817088073,-73.98739514028031
Woodhaven,QN0905,Queens,Gap Zone,0.4023,21,40592.0,40592.0,100.0,83222.62204375246,0.30202408281666615,0.5559409337877816,0.001586883329974939,34,15.424002056367714,2.204356552582492,0.7142115285635626,0.2978046152755107,0.3251911199050608,0.12769176373737118,0.00106706046969951,40.69188559491879,-73.85648111300894
South Williamsburg,BK0103,Brooklyn,Covered,0.4022,0,46364.0,0.0,0.0,38783.86549909412,0.6302674514055044,0.25728170273209694,0.0015586974970148064,47,33.26353679075673,1.4129585887289158,0.20482447088564593,0.693195046536044,0.600648268551961,0.36946111599707326,0.0014018654045185874,40.70301353066709,-73.95668414891199
Gravesend (South),BK1301,Brooklyn,Gap Zone,0.3953,22,23329.0,23329.0,100.0,52958.879763384626,0.44895329715645144,0.5162030295787287,0.002452384628255921,47,19.581529245476077,2.4002211170947447,0.6464353743432958,0.4747903855359567,0.15885436008418485,0.18403643138025488,0.0012950697807021516,40.588644540745726,-73.97500790177497
Co-op City,BX1004,Bronx,Gap Zone,0.3944,23,36651.0,36651.0,100.0,58564.65002319173,0.42668267350179845,0.48771216868799816,0.0,69,25.563380526660698,2.6991735278531785,0.5978419464805751,0.44796397460460813,0.23267983653778154,0.2651051549259425,0.0012528354858573065,40.87159382561658,-73.8263227720923
Carroll Gardens-Cobble Hill-Gowanus-Red Hook,BK0601,Brooklyn,Covered,0.394,0,58991.0,0.0,0.0,138860.72419521623,0.5661888582985364,0.4608101125199249,0.03840412075103314,85,15.045384373367703,5.649573177436471,0.5519583513594657,0.616008224233874,0.17266937874753763,0.12256056758590851,0.000647878822581438,40.68076149425021,-73.99590802059525
Bath Beach,BK1102,Brooklyn,Gap Zone,0.394,24,32533.0,32533.0,100.0,78233.18147726923,0.3594733133626298,0.5009551490189248,0.0061014020914579165,47,24.60997682758551,1.9097945654023267,0.6204289020613972,0.367005940313115,0.29879839024429194,0.25218420165001015,0.0011046512902700423,40.603379057741556,-74.00820963992
Forest Hills,QN0602,Queens,Covered,0.3921,0,91709.0,15429.0,16.8,104415.58608206392,0.4381225867271047,0.476948667582813,0.0038974177653881,88,16.344250070703804,5.384156484348909,0.5794839398021845,0.461744092214243,0.2987659940159916,0.14016337634705586,0.0009073910843435673,40.72229834287979,-73.84786008428779
Canarsie,BK1803,Brooklyn,Gap Zone,0.3778,25,87430.0,87430.0,100.0,82183.8747455107,0.3344437753837532,0.5060478066466292,0.0020942674176050997,173,26.40102252756934,6.5527765002035165,0.629114834438467,0.33685623810202076,0.22816192106151775,0.2764572539016414,0.0010748864699866578,40.63882883523613,-73.89956067565566
Madison,BK1502,Brooklyn,Gap Zone,0.3733,26,38668.0,38668.0,100.0,74213.45932036826,0.4070760320326741,0.4295552977429905,0.016324831599043053,90,35.38282058663393,2.543607279121157,0.49865078044925176,0.424346503033512,0.26373661916791985,0.39818259770679576,0.0011349361793933088,40.6044757577364,-73.9485097174072
Astoria (North)-Ditmars-Steinway,QN0101,Queens,Covered,0.3667,0,48793.0,0.0,0.0,93807.75478039883,0.4167614584897904,0.5102227129975628,0.013607288497712682,56,10.33885739606992,5.416459271532956,0.6362354690649803,0.436013227513842,0.14524814441056486,0.05877560931002947,0.0009873112833698183,40.77475781160372,-73.90903305997145
Midwood,BK1403,Brooklyn,Gap Zone,0.3608,27,52142.0,52142.0,100.0,70679.54852134555,0.426593997944068,0.41403112710752893,0.006793828522237992,67,22.384090541609854,2.993197328051077,0.47217307348223264,0.44785715914276336,0.30617029022496617,0.22201799532363653,0.0011615609292000562,40.620551639676606,-73.95536839453848
Flatlands,BK1801,Brooklyn,Gap Zone,0.3595,28,67826.0,67826.0,100.0,85280.65613481555,0.33038867260949467,0.46835650514774785,0.006970468132014462,152,30.110404379753977,5.048088962305791,0.5648293238158715,0.3319716037479046,0.2299513673602154,0.32672845553549323,0.0010515550860369371,40.625700142481676,-73.93021972016801
Kew Gardens,QN0901,Queens,Gap Zone,0.3555,29,24023.0,24023.0,100.0,93296.8225034342,0.41952143686145893,0.44974321756678876,0.003470444555034864,33,17.51100073912675,1.8845296446287323,0.5330828823579483,0.43933780050776194,0.2167801781042208,0.15597570315675788,0.0009911606855805832,40.70745950535241,-73.82891020869059
East Elmhurst,QN0302,Queens,Covered,0.3436,0,26143.0,0.0,0.0,72877.37126573079,0.2945501625422462,0.5031405171723974,0.01096853391029649,57,21.33027001949018,2.672258717208793,0.6241562211524748,0.28880179345701,0.1600708282054552,0.2077361483570945,0.0011450023673074128,40.762651934426785,-73.87057731092688
South Richmond Hill,QN0903,Queens,Gap Zone,0.3422,30,23216.0,23216.0,100.0,-46236896.334166095,0.25285319782381643,0.4303303438390715,8.869094933470889e-05,28,19.016142785320362,1.4724332014174182,0.49997268317113297,0.23857509448924968,0.27454653225554426,0.1763740612409288,0.3500463212273365,40.69136333099676,-73.82518193494386
Castle Hill-Unionport,BX0903,Bronx,Gap Zone,0.341,31,34807.0,34807.0,100.0,55646.83460223518,0.41246672046491056,0.44111607879687087,0.000518817465801814,49,16.03172765248934,3.0564391475544737,0.5183686114524286,0.4308399369547407,0.1907746102677224,0.13592793278065532,0.001274818526738386,40.825150158763044,-73.85296693762672
Wakefield-Woodlawn,BX1203,Bronx,Gap Zone,0.3338,32,48403.0,48403.0,100.0,73320.44276181229,0.3939185106675928,0.4265878940609684,0.0016314951299434286,60,16.28969743791649,3.6833096642017313,0.4935896376036586,0.40849741499488745,0.22431164675046952,0.13942405467250424,0.0011416642333248461,40.896908657854055,-73.85485994008158
Eastchester-Edenwald-Baychester,BX1202,Bronx,Gap Zone,0.3321,33,53378.0,53378.0,100.0,70691.55120086927,0.40669704705331605,0.44028983264385746,0.001261041698024194,76,14.505705727776839,5.239317646880725,0.5169593829637812,0.42388999104037145,0.1678159013413539,0.11524660124566666,0.0011614705001096182,40.880569036015466,-73.83894341046276
Jamaica Hills-Briarwood,QN0805,Queens,Gap Zone,0.3293,34,39202.0,39202.0,100.0,83990.9843375338,0.35432097022240283,0.43773408170126393,0.0,28,10.902042960153922,2.5683259644396665,0.5126003465857543,0.36079960875804135,0.26491517327813985,0.06640815192158807,0.0010612715703762765,40.71242757935729,-73.80667424133671
Gravesend (East)-Homecrest,BK1501,Brooklyn,Gap Zone,0.3285,35,50129.0,50129.0,100.0,69445.2560992639,0.3982582280106878,0.39761242009604314,0.011916891421567643,57,17.590163947873577,3.240447341418359,0.4441696636231308,0.41372488606067603,0.268858677628508,0.1570485583621476,0.0011708601811605268,40.599261080009455,-73.96554098756027
Richmond Hill,QN0902,Queens,Gap Zone,0.3219,36,35569.0,35569.0,100.0,78244.96969270994,0.33012012917228356,0.4377536054521654,0.004767816866071847,51,18.135575562379152,2.812152270799475,0.512633645894774,0.33164812575684094,0.21488324218726423,0.1644402204608087,0.0011045624769681073,40.69718416407214,-73.83564293890765
Dyker Heights,BK1002,Brooklyn,Gap Zone,0.3201,37,42005.0,28225.0,67.2,76739.08113319843,0.3419946193085615,0.3945182091199556,0.02949606314766024,68,25.136307191050467,2.705250197778086,0.4388922408581533,0.3459517194476033,0.2699574621296864,0.25931726610175493,0.0011159079546595452,40.623868266962795,-74.01085664276006
St. George-New Brighton,SI0101,Staten Island,Gap Zone,0.3154,38,16985.0,16985.0,100.0,72887.6353841625,0.34813892920416095,0.4072891025666212,0.0,96,38.98069199172703,2.4627577165734853,0.46067401473375225,0.3533529393103647,0.10485362078342421,0.44694255989607046,0.001144925036666966,40.642111451506096,-74.08612791671058
Ozone Park (North),QN0904,Queens,Gap Zone,0.3142,39,27419.0,27419.0,100.0,85582.9510558372,0.2875680954282263,0.4195283735679797,0.006462206792266363,33,19.63858673891649,1.680365315422931,0.48154906427254324,0.28039144067769667,0.285071776766718,0.1848097000465088,0.0010492775733611515,40.68472893593765,-73.84874742716231
South Jamaica,QN1202,Queens,Gap Zone,0.3016,40,43798.0,43798.0,100.0,73996.15630850724,0.2864452960523486,0.4314993815942823,0.0,57,16.20292039662291,3.517884344595077,0.5019665699843291,0.27903895599124,0.21109117544258274,0.13824801340366333,0.0011365733566318648,40.693184536682956,-73.79292043860418
Borough Park,BK1202,Brooklyn,Gap Zone,0.3015,41,85592.0,51363.0,60.0,52529.12009299934,0.5284890035354654,0.23336322824962225,0.012717488508578005,77,20.474179954096254,3.7608343861701123,0.164029611481148,0.5705963035077564,0.4082997013023601,0.19613403296182752,0.0012983076223884726,40.63303376315864,-73.98974653016336
Sheepshead Bay-Manhattan Beach-Gerritsen Beach,BK1503,Brooklyn,Gap Zone,0.3007,42,66402.0,66402.0,100.0,79582.19916568778,0.3622474793153606,0.38597178420444317,0.007350516786556356,130,22.08136386867103,5.887317503265439,0.4243156338469124,0.3703476031688009,0.1886842826628001,0.21791530807770368,0.001094487689522472,40.58958371885511,-73.94328969430731
Rosebank-Shore Acres-Park Hill,SI0103,Staten Island,Gap Zone,0.3004,43,21007.0,21007.0,100.0,-126842311.4339982,0.19322803797256624,0.3570908141066357,0.009248646012160095,50,15.267462905979162,3.2749383645411454,0.37505684372345194,0.16675272144659833,0.09562766844397982,0.12557027516963581,0.9573335823242926,40.61107346312549,-74.07711228996679
Tompkinsville-Stapleton-Clifton-Fox Hills,SI0102,Staten Island,Gap Zone,0.2955,44,12438.0,12438.0,100.0,54472.13008522271,0.34807872304264537,0.40583558484722815,0.0035700912917350737,65,28.861874417118123,2.252105981080985,0.45819492472957857,0.35328041708312663,0.07857027625617365,0.30980781916029587,0.001283668838939489,40.6241368473633,-74.0790244736582
Ozone Park,QN1002,Queens,Gap Zone,0.293,45,24360.0,24360.0,100.0,83102.77413793103,0.2480232793303737,0.4520331358006195,0.007487362940286326,35,15.004792651296379,2.3325880479245464,0.5369885199213041,0.2327571443375509,0.17270117193765794,0.12201045041646395,0.00106796341283788,40.676481926548156,-73.84661769276244
Rockaway Beach-Arverne-Edgemere,QN1402,Queens,Gap Zone,0.2842,46,34329.0,34329.0,100.0,71836.92568965015,0.35873801836421426,0.4124152228776574,0.004034618373172174,48,10.230430352867636,4.691884734501456,0.4694170203770464,0.3661202297874855,0.11288713154374636,0.05730615753380583,0.0011528411625475465,40.592882050970736,-73.79508823648857
Springfield Gardens (North)-Rochdale Village,QN1204,Queens,Gap Zone,0.282,47,32926.0,32926.0,100.0,74543.00574014457,0.28188361035120346,0.4168808253948543,0.0010301416924244017,49,15.303722345958205,3.2018354026751643,0.477033460421285,0.27354410963865444,0.1696430178646889,0.12606167931484225,0.0011324533518757285,40.67441475990231,-73.77129872261018
Mapleton-Midwood (West),BK1204,Brooklyn,Gap Zone,0.2798,48,37695.0,37695.0,100.0,71408.00833001724,0.39117919413335234,0.33133951277921825,0.015890671808584785,57,19.566730216521073,2.913108085472162,0.33113595245153654,0.4051977305245238,0.22045912730481065,0.18383586832198034,0.0011560726582013903,40.61924764701987,-73.97303782590149
East Flushing,QN0705,Queens,Gap Zone,0.2773,49,30278.0,30278.0,100.0,58111.65747407358,0.369058756616659,0.37568430786153184,0.008694402499329481,31,10.539519864693002,2.941310457969612,0.40676952523770044,0.3785522285392189,0.16984530720991037,0.061495076817683424,0.0012562483657998502,40.75442778757339,-73.80989226313471
Hollis,QN1206,Queens,Gap Zone,0.2766,50,22934.0,22934.0,100.0,86660.1216534403,0.24443680370932983,0.42585970252048044,0.001892720123489226,37,16.27615664848707,2.2732639405654336,0.4923476490506044,0.22843700179025025,0.16591453467483458,0.1392405438389439,0.0010411620890460327,40.71157093832183,-73.76199742765603
Morris Park,BX1102,Bronx,Gap Zone,0.2621,51,22059.0,22059.0,100.0,75591.81304682896,0.3166912387022445,0.3697869560622248,0.004067890970784678,48,18.562964892491117,2.5857938253935084,0.39671112298935174,0.3154721560270453,0.13611454288563302,0.17023239178379115,0.0011245515587282595,40.850375454896145,-73.85347178563238
Middle Village,QN0504,Queens,Gap Zone,0.2618,52,35556.0,27774.0,78.1,93081.59632692092,0.23834823831389765,0.39207781223319366,0.003917914110313496,62,19.098433486942596,3.2463395514814746,0.43472994999133513,0.22110292979419607,0.18244440090706984,0.17748930162832816,0.0009927822157853594,40.71895334102594,-73.877805469453
Pelham Bay-Country Club-City Island,BX1003,Bronx,Gap Zone,0.2588,53,24104.0,24104.0,100.0,82268.45266345835,0.31810895779746284,0.3753130582138579,0.0,55,16.766357738287525,3.2803785329238457,0.4061363294545862,0.31717989064747204,0.11348508033362645,0.1458839682175851,0.0010742492535904535,40.84595409431274,-73.82092837819417
Glendale,QN0503,Queens,Covered,0.2547,0,36580.0,15158.0,41.4,96545.23151995626,0.25249286936319093,0.36832321481101865,0.009999729025495351,42,15.066223803076522,2.7876925597921627,0.3942145959390471,0.23814105548320771,0.22394421189600625,0.12284299285636414,0.0009666869276807599,40.70270011867076,-73.87938320407231
Kew Gardens Hills,QN0801,Queens,Gap Zone,0.2532,54,36124.0,36124.0,100.0,84746.78399402059,0.26920330761268796,0.3745067072445173,0.0026669779582744403,40,12.551074940763666,3.1869780229012172,0.40476103378307365,0.2582698623938428,0.18975663015041966,0.08875657074211993,0.0010555773189074857,40.72457904987583,-73.81835910620616
Pomonok-Electchester-Hillcrest,QN0802,Queens,Gap Zone,0.2429,55,37139.0,37139.0,100.0,76878.39023667843,0.2587265211763443,0.3607496227132043,0.0024873154577939767,51,14.847112670656047,3.4350113137348792,0.38129723262460447,0.24564989348144942,0.17975193629096103,0.11987350080699641,0.001114858389394069,40.7272894959952,-73.8043909143554
Baisley Park,QN1203,Queens,Gap Zone,0.2428,56,44443.0,44443.0,100.0,83548.21323943028,0.2451787174808769,0.3809998704300494,0.0,50,11.224394379435184,4.454583321805557,0.41583563970906323,0.22933068505748963,0.1637783928548898,0.07077680250580945,0.0010646074411378992,40.68050240000565,-73.79036767692637
Riverdale-Spuyten Duyvil,BX0803,Bronx,Covered,0.2384,0,40747.0,0.0,0.0,-12537934.921638403,0.29826037619380447,0.35514885964115034,0.002337257468670789,53,9.05776606597642,5.85133239409696,0.37174468602512306,0.29327098648919553,0.10613483560471097,0.041413686722151295,0.09615581086051395,40.896194640273414,-73.90732615417859
Maspeth,QN0501,Queens,Covered,0.2381,0,43574.0,4881.0,11.2,87468.15272869142,0.2401111528087699,0.379551148080203,0.007458147331378886,81,14.951258739928686,5.417604056552254,0.4133647285888143,0.223226474667013,0.12678269631379624,0.1212849349101461,0.0010350743221390069,40.72325688222049,-73.89916575303933
Jamaica Estates-Holliswood,QN0804,Queens,Gap Zone,0.2378,57,24798.0,24798.0,100.0,89166.9827405436,0.2552433301445657,0.3875251424800956,0.00957337469534725,42,11.471125309041286,3.66136702969294,0.4269650098556744,0.24145416392219396,0.1024841376097944,0.07412061039774462,0.0010222752090313092,40.71935499405684,-73.7779774579568
South Ozone Park,QN1001,Queens,Gap Zone,0.2327,58,83569.0,83569.0,100.0,98189.69212267706,0.20230681973039427,0.37235931815786677,0.0019709776448592472,108,14.205166073151885,7.602867818921362,0.4010984910092505,0.17768870303239648,0.18319296699850032,0.11117355344992108,0.0009542974377912961,40.678746425541924,-73.81871171821467
Far Rockaway-Bayswater,QN1401,Queens,Gap Zone,0.2319,59,58834.0,58834.0,100.0,69852.0068157868,0.36967289325829783,0.30318859670132814,0.014475775124549997,47,8.365519328220772,5.618300329717394,0.2831223274878374,0.3792919959643291,0.1732466660140136,0.0320320493710129,0.0011677956906634979,40.60184253736786,-73.75603291580079
Pelham Gardens,BX1103,Bronx,Gap Zone,0.2312,60,29211.0,29211.0,100.0,90003.64088870632,0.2642046994976504,0.3483012362855039,0.00030845066188298786,32,11.457281752453397,2.792983596929324,0.3600655201045192,0.25224871464970433,0.17299525018516412,0.07393299632826036,0.0010159717636033516,40.8644133377222,-73.84813491925372
Queensboro Hill,QN0706,Queens,Gap Zone,0.2267,61,20395.0,20395.0,100.0,71034.54836969846,0.24897971932303975,0.36142258295544233,0.002255706697036673,29,11.811594772756225,2.455214605473032,0.3824450198083996,0.23390923835486752,0.13182871606515875,0.0787348048222153,0.0011588863336368105,40.74345376729954,-73.82203798796326
Murray Hill-Broadway Flushing,QN0704,Queens,Gap Zone,0.2234,62,55058.0,55058.0,100.0,69291.93877365688,0.28435428711675104,0.3213990968545216,0.004908949531587786,68,12.96565020054252,5.24462706830967,0.31418178297190025,0.27652020008043543,0.17374657205240399,0.09437508005371179,0.0011720152854253207,40.767332712622206,-73.81207519262638
St. Albans,QN1205,Queens,Gap Zone,0.2228,63,54951.0,54951.0,100.0,-5968990.01515896,0.18951640207529882,0.37018989528257107,0.002400771555714687,110,15.94077487627294,6.9005428439824215,0.39739836785752375,0.16228181522719223,0.1252570079185091,0.13469530008482208,0.04666488577053196,40.69514271908967,-73.76193250287714
Throgs Neck-Schuylerville,BX1002,Bronx,Gap Zone,0.2185,64,34943.0,34943.0,100.0,79841.63194345076,0.2789776784234517,0.33622828840615204,0.004954318607983147,109,17.64913075402451,6.1759415531070765,0.339474147870606,0.270043726118137,0.08115463183030407,0.15784770288806693,0.0010925331034583596,40.82767290023616,-73.8230745046633
Queens Village,QN1303,Queens,Gap Zone,0.2185,65,56593.0,56593.0,100.0,-22876370.500079516,0.1908752956954959,0.34113039486559354,0.002439697083912394,88,13.598673469395361,6.471219431663635,0.3478350800841267,0.16391869074683124,0.1402179084929867,0.10295409447054223,0.17404636224199188,40.71719812982508,-73.74279458236147
Port Richmond,SI0106,Staten Island,Gap Zone,0.2077,66,20202.0,20202.0,100.0,74560.47005247005,0.2421331954044858,0.2936620679423063,0.0,120,35.64510324103368,3.3665213195920622,0.26687407546733516,0.22566215614744753,0.08771500462172374,0.40173716952760363,0.0011323217744330094,40.63382163815104,-74.13344330678247
Rosedale,QN1307,Queens,Gap Zone,0.2013,67,26385.0,26385.0,100.0,-39673305.83024446,0.16753764216397485,0.3186734493150447,0.0,63,14.356429929889144,4.388277608546547,0.3095329744435534,0.13580697310846065,0.08793990945299283,0.11322354887907173,0.3005957366090227,40.660411281097325,-73.73461190421378
Mariner's Harbor-Arlington-Graniteville,SI0107,Staten Island,Gap Zone,0.191,68,30841.0,30841.0,100.0,87518.40248370676,0.22829883162334486,0.3377202142269792,0.0012968739528579915,112,13.486611061925535,8.304532509000028,0.342018745944667,0.20899776751057556,0.04396205948774418,0.10143537461209125,0.0010346957367046716,40.62957444725409,-74.16125462990541
Marine Park-Mill Basin-Bergen Beach,BK1802,Brooklyn,Gap Zone,0.19,69,43426.0,43426.0,100.0,107315.62110256529,0.17600187219277472,0.31112905404336055,0.003021056946766514,132,24.134564937730953,5.469334141326774,0.29666540863680335,0.14600268726946058,0.12480973389742765,0.24574120712251676,0.0008855420023370364,40.61435367061828,-73.92541981464981
Grasmere-Arrochar-South Beach-Dongan Hills,SI0201,Staten Island,Gap Zone,0.1845,70,36080.0,36080.0,100.0,81734.43497782706,0.18502143529295914,0.32956300185841386,0.005989231072414947,139,18.67591244358843,7.442742110719182,0.3281059718690428,0.15686733614049578,0.0656543370389934,0.17176310750450316,0.0010782725830066342,40.59382155181178,-74.0823445393679
College Point,QN0701,Queens,Gap Zone,0.179,71,17083.0,17083.0,100.0,83011.57121114558,0.22602731296417128,0.33058749965553014,0.008895966681877717,68,10.972172925576965,6.197496198905766,0.32985333429486136,0.20626157592770156,0.025648221893913813,0.0673585845739397,0.001068650542549232,40.78173096511742,-73.84110953612242
Cambria Heights,QN1304,Queens,Gap Zone,0.1712,72,21017.0,21017.0,100.0,115210.89993814532,0.13346067323389704,0.3267658681078561,0.006289905657724223,49,15.947377516242891,3.072605508340917,0.32333523792557206,0.09475905339193902,0.10377051851948574,0.13478478201428418,0.0008260583776485975,40.694859656268065,-73.73600792082571
West New Brighton-Silver Lake-Grymes Hill,SI0104,Staten Island,Gap Zone,0.1549,73,36360.0,36360.0,100.0,109430.50849834984,0.19243453728320012,0.27373189590968183,0.002783753901155704,163,20.554603859922455,7.930096882957633,0.232881582903727,0.16579689839030073,0.060630483962846204,0.1972239736977994,0.0008696082815997652,40.629152422601436,-74.10362299375089
Springfield Gardens (South)-Brookville,QN1306,Queens,Gap Zone,0.1451,74,24041.0,24041.0,100.0,109650.98423526475,0.15399524325951935,0.30817303895730885,0.006248755159794394,37,6.933955827142125,5.336059375395501,0.29162368994686716,0.1194942751058942,0.05910619570274231,0.012630860633325245,0.0008679472008119582,40.66122981980227,-73.76019948681115
Laurelton,QN1305,Queens,Gap Zone,0.1449,75,27010.0,27010.0,100.0,106250.62636060719,0.15853067066091775,0.28381830220498794,0.004735186253911533,32,8.64557953029651,3.7013134733031046,0.250084750564572,0.1249574916330071,0.11251855822738925,0.03582755046774548,0.0008935657528397201,40.67602176113637,-73.74386756483698
Auburndale,QN1101,Queens,Gap Zone,0.1423,76,35317.0,35317.0,100.0,87050.48605487442,0.13151389743253403,0.284138535221053,0.002349403303810194,71,13.778977662767327,5.152777059204593,0.25063093342738896,0.09241403564800807,0.10403549033925827,0.1053976575281155,0.0010382210542796422,40.75674239117525,-73.78506870722761
Oakwood-Richmondtown,SI0301,Staten Island,Gap Zone,0.1355,77,20664.0,20664.0,100.0,107561.72256097561,0.13607314158508035,0.28927345662508763,0.0005160055808426799,71,13.662357945703071,5.196760345627609,0.2593889500343522,0.09790594099691831,0.04898507907056993,0.10381717497208877,0.0008836878554359107,40.56104606884087,-74.12142029237366
New Dorp-Midland Beach,SI0202,Staten Island,Gap Zone,0.1311,78,28551.0,28551.0,100.0,91669.35743056286,0.1517892940425065,0.25509685007226557,0.0,111,19.215238246184708,5.776665299585326,0.2010980310099477,0.11683706616972192,0.06746780042407095,0.17907229195869692,0.00100342212986948,40.57358245341278,-74.10304988341254
Oakland Gardens-Hollis Hills,QN1104,Queens,Gap Zone,0.1123,79,26895.0,26895.0,100.0,104212.2104852203,0.12859341823922826,0.2403927396634942,0.002146611462276814,38,10.31993239831772,3.6821946630381497,0.17601900194253955,0.08889612900242094,0.11264593699381836,0.05851912927755161,0.0009089233313895884,40.739553569930465,-73.75490400905464
Fresh Meadows-Utopia,QN0803,Queens,Gap Zone,0.1073,80,22720.0,22720.0,100.0,96065.99300176057,0.1230128448037046,0.22476661530166403,0.004796818899651197,45,14.591371732739251,3.084014363024669,0.1493674047913442,0.08217396627651777,0.11385025871015857,0.11640758525331085,0.0009702975467287267,40.734429906230126,-73.78718141495482
Bayside,QN1102,Queens,Gap Zone,0.1027,81,35353.0,35353.0,100.0,104678.45826379657,0.10299112108456425,0.25555553457044167,0.0004172966416440758,50,7.643730935407884,6.541308220097873,0.20188035388040612,0.05805650120807239,0.07630803255578775,0.022250050300008543,0.0009054105855512695,40.76042716244573,-73.76837705713226
Howard Beach-Lindenwood,QN1003,Queens,Gap Zone,0.1015,82,30374.0,30374.0,100.0,106207.44518338052,0.11669103816853503,0.23508165738388997,0.004052776358932429,51,10.43552335314244,4.8871530707314665,0.16696052896003696,0.07455894007638027,0.09181305063265804,0.06008566958766302,0.0008938910830773583,40.66104849640779,-73.8451093062134
Breezy Point-Belle Harbor-Rockaway Park-Broad Channel,QN1403,Queens,Gap Zone,0.0928,83,25416.0,25416.0,100.0,115231.18185395027,0.1675040872159901,0.21743551731993951,0.009009595372896776,44,6.840793876473506,6.432002015339544,0.13686363446668648,0.13576655399683735,0.04851003187195982,0.011368288217409955,0.0008259055721692166,40.578813558865434,-73.85139415503032
Westerleigh-Castleton Corners,SI0105,Staten Island,Gap Zone,0.0917,84,32585.0,32585.0,100.0,126524.62921589689,0.09219748636367316,0.22050679176767904,0.0,140,19.69114084546985,7.1097962834493895,0.1421019371594424,0.04505486798236793,0.060593165477039114,0.1855219367998306,0.000740819890167721,40.61661018101166,-74.12954015550537
Bay Terrace-Clearview,QN0703,Queens,Gap Zone,0.0905,85,20996.0,20996.0,100.0,105382.80691560297,0.14648747106329796,0.19282485435622598,0.0,57,15.603866259724404,3.6529408193611843,0.09488819258840908,0.1104506764515427,0.08287205950046515,0.13012936385350132,0.000900103969822319,40.7813452906263,-73.78588581968887
Bellerose,QN1302,Queens,Gap Zone,0.087,86,27529.0,27529.0,100.0,103817.96854226453,0.12372853523014855,0.21742513549667083,0.0,43,8.36644792486379,5.139576602420562,0.13684592744189614,0.08303606182342026,0.07538406417031891,0.032044634127971844,0.0009118935798456684,40.734124835634354,-73.72690299047969
Great Kills-Eltingville,SI0302,Staten Island,Gap Zone,0.0754,87,51694.0,51694.0,100.0,121772.05569311719,0.08181575540634771,0.21905571464756024,0.0,109,10.049689169414194,10.846106597180828,0.1396270097913235,0.03254939956088854,0.0640944219587954,0.05485667219123379,0.000776626136612002,40.551317794421585,-74.15759331028222
Tottenville-Charleston,SI0305,Staten Island,Gap Zone,0.0643,88,16674.0,16674.0,100.0,-58697238.42197433,0.0667234225892154,0.16295256128421792,0.0,79,6.7075901052221,11.777702388000074,0.04393862233653399,0.014369705613230341,0.0,0.009563051142929444,0.4439234758758702,40.516225078472345,-74.23905709828117
New Springville-Willowbrook-Bulls Head-Travis,SI0204,Staten Island,Gap Zone,0.058,89,43014.0,43014.0,100.0,98221.6712000744,0.09120832906978463,0.20778497397041054,0.0,142,7.2997495472359875,19.452722190142477,0.12040386570469837,0.04386336385329293,0.015217819456255716,0.01758826070482374,0.000954056505016454,40.59673250377868,-74.16423196281474
Whitestone-Beechhurst,QN0702,Queens,Gap Zone,0.0554,90,29815.0,29815.0,100.0,95490.34328358209,0.0983866032662675,0.16775021064713236,0.0,51,10.429031282515226,4.890195322887176,0.05212139466909137,0.05251006079177369,0.08955228849336193,0.05999768614337844,0.0009746345350101215,40.79003683343543,-73.81169440274493
Douglaston-Little Neck,QN1103,Queens,Gap Zone,0.0547,91,25682.0,25682.0,100.0,111893.0427926174,0.11095582335300848,0.18350311894320048,0.0,38,6.001957313321437,6.331267954148626,0.07898923189762845,0.06765050177637205,0.05051650083787704,0.0,0.0008510553629768047,40.7643216796419,-73.7371294598138
Glen Oaks-Floral Park-New Hyde Park,QN1301,Queens,Gap Zone,0.0447,92,24109.0,24109.0,100.0,115393.03177236716,0.11838788476170571,0.1422610512806152,0.0008678982419102394,44,10.427023848042781,4.219804293270038,0.008647607348006143,0.07660290187564245,0.08221398201867729,0.05997048049371701,0.0008246861827083674,40.74651501957273,-73.71142506846026
Annadale-Huguenot-Prince's Bay-Woodrow,SI0304,Staten Island,Gap Zone,0.0407,93,42756.0,42756.0,100.0,118500.42209280569,0.062113669293099784,0.19179764778437006,4.554736685083825e-05,119,7.099277158110846,16.76226992547316,0.09313621013196342,0.008816958724263038,0.02171297454003587,0.014871369239526208,0.0008012748702732608,40.53161452138685,-74.19641701830473
Todt Hill-Emerson Hill-Lighthouse Hill-Manor Heights,SI0203,Staten Island,Gap Zone,0.033,94,33719.0,33719.0,100.0,107347.21575372935,0.1273749318994381,0.1501878681020455,0.0,120,6.932854663445681,17.30888729468318,0.02216742350486003,0.08742838316052952,0.01018400068594447,0.0126159371704892,0.0008853039658583972,40.59767279697006,-74.12445597565264
Arden Heights-Rossville,SI0303,Staten Island,Gap Zone,0.0201,95,31559.0,31559.0,100.0,104843.06663709243,0.05479404796808638,0.13719086403871628,0.0007595624082803148,67,10.640976780367838,6.296414453568984,0.0,0.0,0.06880208044194853,0.06287006630873151,0.0009041704136837359,40.55254568454702,-74.19439616663182
